[
    
        {
            "name": "กรุงเทพมหานคร",
            "lat": 13.7563,
            "lon": 100.5018
        },
        {
            "name": "กระบี่",
            "lat": 8.0863,
            "lon": 98.9063
        },
        {
            "name": "กาญจนบุรี",
            "lat": 14.0209,
            "lon": 99.5328
        },
        {
            "name": "กาฬสินธุ์",
            "lat": 16.4419,
            "lon": 103.5061
        },
        {
            "name": "กำแพงเพชร",
            "lat": 16.4828,
            "lon": 99.5222
        },
        {
            "name": "ขอนแก่น",
            "lat": 16.4467,
            "lon": 102.833
        },
        {
            "name": "จันทบุรี",
            "lat": 12.6096,
            "lon": 102.1045
        },
        {
            "name": "ฉะเชิงเทรา",
            "lat": 13.6888,
            "lon": 101.0712
        },
        {
            "name": "ชลบุรี",
            "lat": 13.3611,
            "lon": 100.9847
        },
        {
            "name": "ชัยนาท",
            "lat": 15.1851,
            "lon": 100.1257
        },
        {
            "name": "ชัยภูมิ",
            "lat": 15.8068,
            "lon": 102.0313
        },
        {
            "name": "ชุมพร",
            "lat": 10.493,
            "lon": 99.1802
        },
        {
            "name": "เชียงราย",
            "lat": 19.9105,
            "lon": 99.8406
        },
        {
            "name": "เชียงใหม่",
            "lat": 18.7883,
            "lon": 98.9853
        },
        {
            "name": "ตรัง",
            "lat": 7.5598,
            "lon": 99.6113
        },
        {
            "name": "ตราด",
            "lat": 12.2428,
            "lon": 102.5151
        },
        {
            "name": "ตาก",
            "lat": 16.877,
            "lon": 99.1258
        },
        {
            "name": "นครนายก",
            "lat": 14.2069,
            "lon": 101.2131
        },
        {
            "name": "นครปฐม",
            "lat": 13.8199,
            "lon": 100.0443
        },
        {
            "name": "นครพนม",
            "lat": 17.3924,
            "lon": 104.769
        },
        {
            "name": "นครราชสีมา",
            "lat": 14.9799,
            "lon": 102.0977
        },
        {
            "name": "นครศรีธรรมราช",
            "lat": 8.4324,
            "lon": 99.9631
        },
        {
            "name": "นครสวรรค์",
            "lat": 15.7047,
            "lon": 100.1372
        },
        {
            "name": "นนทบุรี",
            "lat": 13.8621,
            "lon": 100.5144
        },
        {
            "name": "นราธิวาส",
            "lat": 6.4257,
            "lon": 101.8253
        },
        {
            "name": "น่าน",
            "lat": 18.7756,
            "lon": 100.7731
        },
        {
            "name": "บึงกาฬ",
            "lat": 18.3609,
            "lon": 103.6466
        },
        {
            "name": "บุรีรัมย์",
            "lat": 14.993,
            "lon": 103.1029
        },
        {
            "name": "ปทุมธานี",
            "lat": 14.0208,
            "lon": 100.525
        },
        {
            "name": "ประจวบคีรีขันธ์",
            "lat": 11.8132,
            "lon": 99.797
        },
        {
            "name": "ปราจีนบุรี",
            "lat": 14.0509,
            "lon": 101.3709
        },
        {
            "name": "ปัตตานี",
            "lat": 6.8648,
            "lon": 101.2501
        },
        {
            "name": "พระนครศรีอยุธยา",
            "lat": 14.3695,
            "lon": 100.587
        },
        {
            "name": "พังงา",
            "lat": 8.4504,
            "lon": 98.526
        },
        {
            "name": "พัทลุง",
            "lat": 7.6167,
            "lon": 100.074
        },
        {
            "name": "พิจิตร",
            "lat": 16.4421,
            "lon": 100.348
        },
        {
            "name": "พิษณุโลก",
            "lat": 16.8211,
            "lon": 100.2659
        },
        {
            "name": "เพชรบุรี",
            "lat": 13.1117,
            "lon": 99.9395
        },
        {
            "name": "เพชรบูรณ์",
            "lat": 16.418,
            "lon": 101.1606
        },
        {
            "name": "แพร่",
            "lat": 18.1446,
            "lon": 100.1403
        },
        {
            "name": "ภูเก็ต",
            "lat": 7.8804,
            "lon": 98.3923
        },
        {
            "name": "มหาสารคาม",
            "lat": 16.1867,
            "lon": 103.299
        },
        {
            "name": "มุกดาหาร",
            "lat": 16.5448,
            "lon": 104.7231
        },
        {
            "name": "แม่ฮ่องสอน",
            "lat": 19.302,
            "lon": 97.9654
        },
        {
            "name": "ยโสธร",
            "lat": 15.792,
            "lon": 104.1451
        },
        {
            "name": "ยะลา",
            "lat": 6.5415,
            "lon": 101.2805
        },
        {
            "name": "ร้อยเอ็ด",
            "lat": 16.0538,
            "lon": 103.652
        },
        {
            "name": "ระนอง",
            "lat": 9.9529,
            "lon": 98.6085
        },
        {
            "name": "ระยอง",
            "lat": 12.6814,
            "lon": 101.277
        },
        {
            "name": "ราชบุรี",
            "lat": 13.5283,
            "lon": 99.8134
        },
        {
            "name": "ลพบุรี",
            "lat": 14.7995,
            "lon": 100.6534
        },
        {
            "name": "ลำปาง",
            "lat": 18.2888,
            "lon": 99.4902
        },
        {
            "name": "ลำพูน",
            "lat": 18.573,
            "lon": 99.0077
        },
        {
            "name": "เลย",
            "lat": 17.484,
            "lon": 101.7223
        },
        {
            "name": "ศรีสะเกษ",
            "lat": 15.1185,
            "lon": 104.3224
        },
        {
            "name": "สกลนคร",
            "lat": 17.156,
            "lon": 104.1363
        },
        {
            "name": "สงขลา",
            "lat": 7.1897,
            "lon": 100.5951
        },
        {
            "name": "สตูล",
            "lat": 6.6238,
            "lon": 100.0674
        },
        {
            "name": "สมุทรปราการ",
            "lat": 13.5991,
            "lon": 100.5999
        },
        {
            "name": "สมุทรสงคราม",
            "lat": 13.4149,
            "lon": 100.002
        },
        {
            "name": "สมุทรสาคร",
            "lat": 13.5472,
            "lon": 100.2744
        },
        {
            "name": "สระแก้ว",
            "lat": 13.824,
            "lon": 102.0655
        },
        {
            "name": "สระบุรี",
            "lat": 14.5289,
            "lon": 100.9109
        },
        {
            "name": "สิงห์บุรี",
            "lat": 14.8912,
            "lon": 100.3968
        },
        {
            "name": "สุโขทัย",
            "lat": 17.0078,
            "lon": 99.823
        },
        {
            "name": "สุพรรณบุรี",
            "lat": 14.4745,
            "lon": 100.1226
        },
        {
            "name": "สุราษฎร์ธานี",
            "lat": 9.1382,
            "lon": 99.3214
        },
        {
            "name": "สุรินทร์",
            "lat": 14.8829,
            "lon": 103.4936
        },
        {
            "name": "หนองคาย",
            "lat": 17.8783,
            "lon": 102.742
        },
        {
            "name": "หนองบัวลำภู",
            "lat": 17.2046,
            "lon": 102.4391
        },
        {
            "name": "อ่างทอง",
            "lat": 14.5896,
            "lon": 100.4558
        },
        {
            "name": "อำนาจเจริญ",
            "lat": 15.8581,
            "lon": 104.6258
        },
        {
            "name": "อุดรธานี",
            "lat": 17.4138,
            "lon": 102.787
        },
        {
            "name": "อุตรดิตถ์",
            "lat": 17.62,
            "lon": 100.0993
        },
        {
            "name": "อุทัยธานี",
            "lat": 15.3795,
            "lon": 100.0286
        },
        {
            "name": "อุบลราชธานี",
            "lat": 15.2442,
            "lon": 104.8472
        }
    
]